stop_id,stop_name,stop_lat,stop_lon,wheelchair_boarding,stop_code
170545,Cranbrook Exch,49.51234,-115.76486,0,170545
970000,Cranbrook Transit Centre,49.51693,-115.76711,0,970000
170409,Cranbrook Walmart,49.53033,-115.75085,0,170409
170500,Kootenay & 3 St N,49.51493,-115.76349,0,170500
170502,Kootenay & 4 St N,49.51621,-115.76193,0,170502
170504,Kootenay & 7 St N,49.5181,-115.75967,0,170504
170506,Kootenay & 8 St N,49.51958,-115.75785,0,170506
170509,Kootenay & Victoria,49.52106,-115.75433,0,170509
170427,21 Av N & Kootenay,49.52153,-115.75204,0,170427
170428,12 St N & 21 Av N,49.5228,-115.75162,0,170428
170429,Tamarack Mall,49.52432,-115.74972,0,170429
170538,12 St N & 23A Av N,49.52278,-115.74858,0,170538
170413,Kootenay & 12 St N,49.5233,-115.74485,0,170413
170411,Willowbrook & Kootenay,49.52505,-115.74489,0,170411
170540,Willowbrook & Kokanee,49.52711,-115.74514,0,170540
170407,Willowbrook & Kokanee,49.52763,-115.74608,0,170407
170405,Kokanee at Kelowna Cres S,49.52783,-115.74514,0,170405
170426,21 Av N & Kootenay,49.52142,-115.75219,0,170426
170424,6 St N & Victoria,49.51741,-115.75287,0,170424
170422,2122 6 St N,49.51743,-115.75073,0,170422
170418,24 Av N & 8 St N,49.51912,-115.74787,0,170418
170416,Kootenay & 24 Av N,49.52108,-115.74717,0,170416
172005,4th St at 10th Ave,50.50999,-116.03123,0,172005
172006,10th Ave at 9th St (Hospital),50.5066,-116.03225,0,172006
172007,13th St at 7th Ave,50.50337,-116.02763,0,172007
172008,7th Ave at 9th St,50.50633,-116.02892,0,172008
172004,Laurier St at Third Ave,50.51498,-116.02359,0,172004
172000,Shaughnessy St at Burns Ave,50.1552,-115.82031,0,172000
172001,Shaughnessy St at Alder Ave,50.15745,-115.82132,0,172001
172002,Beatty Ave at Tamarack St,50.16009,-115.81808,0,172002
172003,Dunn St at Stevens Ave,50.15872,-115.81171,0,172003
170021,Michel Rd at Fording Dr,50.02486,-114.92316,0,170021
174005,Ponderosa & Pinyon,49.74662,-114.89419,0,174005
174004,Industrial Rd 1 & Michel Creek,49.74284,-114.87066,0,174004
170013,Aspen Dr at 100 Block,49.73447,-114.8749,0,170013
174003,Greenwood Mall,49.73232,-114.88506,0,174003
170012,Sparwood Leisure Centre,49.7336,-114.89634,0,170012
170010,Sparwood Health Ctr,49.72129,-114.89327,0,170010
174001,Elk Valley Hospital,49.51355,-115.05648,0,174001
170008,6th Ave at 12th St,49.51062,-115.06061,0,170008
170004,2nd Ave at 8th St,49.50545,-115.05947,0,170004
170005,2nd Ave at 5th St,49.50319,-115.06163,0,170005
174002,4th St & 3rd Ave - COTR,49.50319,-115.06435,0,174002
174000,6th Ave at 8th St,49.50728,-115.06359,0,174000
170007,6th Ave at 12th St,49.51048,-115.06036,0,170007
170403,Kokanee at Kelowna Cres N,49.52907,-115.74341,0,170403
170401,Kokanee Place,49.53008,-115.74224,0,170401
170402,Kokanee Cres N,49.53053,-115.74049,0,170402
170404,30 Av N & Kokanee,49.53028,-115.73925,0,170404
170408,30 Av N & Eagle Ridge,49.52769,-115.73931,0,170408
170412,30 Av N & Mt Fisher,49.52603,-115.73937,0,170412
170414,Kootenay & 12 St N,49.52312,-115.74508,0,170414
170415,Kootenay & 24 Av N,49.52115,-115.74741,0,170415
170417,24 Av N & 8 St N,49.51912,-115.74807,0,170417
170420,24 Av N & 7 St N,49.51796,-115.74808,0,170420
170421,6 St N & 23 Av N,49.51753,-115.74933,0,170421
170423,6 St N & Victoria,49.51751,-115.75273,0,170423
170508,Kootenay & 18A Av N,49.52116,-115.75558,0,170508
170505,Kootenay & 8 St N,49.51927,-115.75857,0,170505
170503,Kootenay & 7 St N,49.51795,-115.75995,0,170503
170501,Kootenay & 4 St N,49.51628,-115.76205,0,170501
170499,Kootenay & 3 St N (SB),49.51487,-115.76373,0,170499
170530,12 St N & Kokanee,49.52321,-115.74679,0,170530
170437,1 St S & 14 Av S,49.51024,-115.76234,0,170437
170433,1 St S & 15 Av S,49.51023,-115.76112,0,170433
170438,1 St S & 17 Av S,49.51021,-115.75876,0,170438
170439,17 Av N & Baker,49.51261,-115.75778,0,170439
170440,2 St N & 17 Av N,49.51384,-115.75702,0,170440
170443,2 St N & 21 Av N,49.51383,-115.75073,0,170443
170190,College of the Rockies,49.51708,-115.74306,0,170190
170528,College & Kinsmen Park,49.51559,-115.74667,0,170528
170444,2 St N & 24 Av N,49.51392,-115.74835,0,170444
170442,2 St N & 21 Av N,49.51388,-115.7514,0,170442
170441,2 St N & Victoria,49.51389,-115.75457,0,170441
170445,17 Av N & 2 St N,49.51335,-115.75787,0,170445
170535,17 Av S & Baker,49.51186,-115.75792,0,170535
170191,E Kootenay Hospital,49.51194,-115.74946,0,170191
170517,1 St S & 17 Av S,49.5103,-115.75888,0,170517
170516,1 St S & 14 Av S,49.51033,-115.76261,0,170516
170184,1 St S & 11 Av S,49.51033,-115.76584,0,170184
170446,14 Av S & 2 St S,49.50918,-115.76227,0,170446
170536,2 St S & 15 Av S,49.50839,-115.76031,0,170536
170448,2 St S & 17 Av S,49.50836,-115.7575,0,170448
170463,2 St S & 20 Av S,49.50838,-115.75337,0,170463
170524,2 St S & Victoria,49.50833,-115.74996,0,170524
170525,2 St S & 24 Av S,49.50835,-115.7472,0,170525
170526,27 Av S & 2 St S,49.50794,-115.74406,0,170526
170467,27 Av S & 3 St S,49.50615,-115.74389,0,170467
170470,27 Av S & 4 St S,49.50467,-115.74394,0,170470
170472,27 Av S & 7 St S,49.50246,-115.74392,0,170472
170473,7 St S & 28 Av S,49.50186,-115.74198,0,170473
170474,30 Av S & 7 St S,49.50219,-115.73907,0,170474
170471,30 Av S & 4 St S,49.5047,-115.73901,0,170471
170469,3 St S & 30 Av S,49.50643,-115.73972,0,170469
170434,1 St S & 8 Av S,49.51035,-115.77088,0,170434
170435,7 Av S & 1 St S,49.50971,-115.77188,0,170435
170488,3 St S & 5 Av S,49.50677,-115.77504,0,170488
170489,3 Av S & 3 St S,49.50642,-115.77742,0,170489
170533,3 Av S & 4 St S,49.50515,-115.77747,0,170533
170513,Wattsville & Innes,49.50318,-115.78283,0,170513
170512,609 Innes Av S,49.50249,-115.78305,0,170512
170188,815 Innes Av S,49.50056,-115.78311,0,170188
170511,923 Innes Av S,49.49933,-115.78313,0,170511
170510,11th St S & Innes,49.49786,-115.78272,0,170510
170534,11 St S & 2 Av S,49.49787,-115.77981,0,170534
170493,3 Av S & 11 St S,49.49837,-115.77728,0,170493
170492,3 Av S & 9 St S,49.5005,-115.77724,0,170492
170491,3 Av S & 6 St S,49.50275,-115.77723,0,170491
170490,4 St S & 4 Av S,49.50484,-115.77582,0,170490
170484,4 St S & 6 Av S,49.50482,-115.7734,0,170484
170179,7 Av S & 4 St S,49.50579,-115.77168,0,170179
170486,7 Av S & 3 St S,49.50695,-115.7716,0,170486
170487,7 Av S & 1 St S,49.50984,-115.77171,0,170487
170436,1 St S & 8 Av S,49.51023,-115.77004,0,170436
170067,533 Slater Rd NW,49.51872,-115.76475,0,170067
170069,405 Slater Rd NW,49.51759,-115.76627,0,170069
170079,Slater & 3 St NW,49.51627,-115.76785,0,170079
170195,Briar & Slater,49.51572,-115.76958,0,170195
170081,Briar & 3 St NW,49.5174,-115.76922,0,170081
170085,Briar & 5 St NW,49.51905,-115.76725,0,170085
170086,Briar & 6 St NW,49.52013,-115.76591,0,170086
170087,756 Industrial Rd 2,49.52154,-115.76506,0,170087
170088,Industrial Rd B,49.52315,-115.76496,0,170088
170093,1041 Industrial Rd 2,49.52512,-115.76478,0,170093
170116,Industrial Rd D,49.52885,-115.76448,0,170116
170121,Industrial Rd F,49.53139,-115.76452,0,170121
170485,7 Av S & 3 St S,49.5063,-115.7719,0,170485
170514,7 Av S & 5 St S,49.50427,-115.77193,0,170514
170483,7 Av S & 7 St S,49.50222,-115.77195,0,170483
170482,7 Av S & 8 St S,49.50054,-115.77197,0,170482
170496,7 Av S & 11 St S,49.49698,-115.77198,0,170496
170497,Larch & 16 St S,49.49508,-115.77513,0,170497
170002,4 Av S & Birch,49.49353,-115.77656,0,170002
170498,3 Av S & 15 St S,49.49441,-115.7771,0,170498
170494,11 St S & 4 Av S,49.49789,-115.77661,0,170494
170495,11 St S & 5 Av S,49.49789,-115.77401,0,170495
170480,11 St S & 10 Av S,49.49787,-115.76799,0,170480
170479,11 Av S & 11 St S,49.49828,-115.7662,0,170479
170478,11 Av S & 8 St S,49.50096,-115.76621,0,170478
170477,11 Av S & 7 St S,49.50203,-115.76621,0,170477
170476,11 Av S & 4 St S,49.50533,-115.76622,0,170476
170475,11 Av S & 2 St S,49.50937,-115.76615,0,170475
170449,14 Av S & 3 St S,49.50643,-115.76229,0,170449
170450,14 Av S & 4 St S,49.50444,-115.7623,0,170450
170451,14 Av S & 5 St S,49.50277,-115.76228,0,170451
170453,14 Av S & 12 St S,49.49731,-115.76198,0,170453
170455,14 Av S & 14 St S,49.49547,-115.76007,0,170455
170457,14 Av S & 16 St S,49.4934,-115.75989,0,170457
170460,20A St S & 14 Av S,49.48958,-115.75992,0,170460
170459,14 Av S & 19 St S,49.4907,-115.75978,0,170459
170456,14 Av S & 15 St S,49.49442,-115.7598,0,170456
170454,14 Av S & 16 Av S,49.49636,-115.76082,0,170454
170461,14 Av S & 7 St S,49.5009,-115.76234,0,170461
170458,14 Av S & 18 St S,49.49189,-115.75991,0,170458
170537,10 St S & 15 Av S,49.49935,-115.76163,0,170537
170518,10 St S & 16 Av S,49.49946,-115.75938,0,170518
170519,10 St S & 19 Av S,49.49967,-115.756,0,170519
170520,10 St S & 20 Av S,49.49987,-115.75408,0,170520
170521,Victoria & 7 St S,49.50228,-115.75151,0,170521
170522,Victoria & 5 St S,49.50422,-115.75158,0,170522
170523,Victoria & 3 St S,49.50614,-115.75138,0,170523
170464,2 St S & Victoria,49.50851,-115.7525,0,170464
170462,2 St S at Laurie School,49.50852,-115.75594,0,170462
170447,2 St S & 16 Av S,49.50852,-115.75838,0,170447
170193,14 Av N & Baker,49.51232,-115.76208,0,170193
170468,3 St S & 28 Av S,49.50649,-115.74216,0,170468
170466,3 St S & 25 Av S,49.5067,-115.74653,0,170466
170465,3 St S & 23 Av S,49.50671,-115.75022,0,170465
170122,Industrial Rd G,49.53376,-115.76521,0,170122
170209,Ind Rd 2 & Mission Cr S,49.53512,-115.76601,0,170209
170124,Ind Rd 2 & Mission Cr N,49.53664,-115.76698,0,170124
170125,Grandview Hts N & Ind 2,49.53757,-115.76789,0,170125
170126,Grandview Hts S & Ind 2,49.5355,-115.76652,0,170126
170127,Industrial Rd G,49.53377,-115.76539,0,170127
170129,Industrial Rd C,49.5245,-115.76503,0,170129
170130,Briar & 6 St NW,49.52017,-115.7662,0,170130
170133,Briar & 4 St NW,49.51831,-115.7684,0,170133
170194,Briar & Slater,49.51558,-115.76981,0,170194
170141,532 Slater Rd NW,49.51863,-115.7646,0,170141
171009,Kimberley Conference Ctr,49.68856,-116.00405,0,171009
171000,4 Av & Tadanac,49.69262,-115.98946,0,171000
171002,Kimberley: Shoppers,49.68462,-115.98291,0,171002
171003,Kimberley Civic Ctr,49.67553,-115.97713,0,171003
171005,COTR Kimberley,49.67114,-115.97997,0,171005
171007,Marysville Kingdom Hall,49.6364,-115.95575,0,171007
170211,Theatre & McPhee,49.53236,-115.75389,0,170211
170212,Cranbrook Exch,49.51316,-115.76488,0,170212
170161,Theatre & 17 St N,49.53195,-115.75385,0,170161
171008,Marysville Service Stn,49.63656,-115.9559,0,171008
171001,Kimberley: Mark Crk Mrkt,49.6847,-115.98286,0,171001
171006,COTR Kimberley,49.6713,-115.97993,0,171006
171004,Kimberley Civic Ctr,49.6754,-115.97686,0,171004
172016,First at Laurier,50.51547,-116.02192,0,172016
172017,Arrow at Eagle Ranch Trail,50.51656,-116.00803,0,172017
172018,Black Forest Trail at Wolf,50.51606,-115.99812,0,172018
172014,Columbia Valley Chamber of Commerce,50.51167,-115.9975,0,172014
172022,Bench at Hwy 95,50.46767,-115.97922,0,172022
172009,Victoria at Fairmont,50.46254,-115.98849,0,172009
172010,Hwy 95 at Wills,50.3387,-115.85696,0,172010
172011,Fairmont Resort Rd at Hwy 95,50.33554,-115.85609,0,172011
172012,Fairmont Lodge,50.32855,-115.84339,0,172012
172026,Hot Springs & Columbia R,50.32695,-115.85876,0,172026
172024,Fairmont Creek Rd,50.32477,-115.8628,0,172024
172025,Fairmont Creek Rd,50.32472,-115.8627,0,172025
172027,Hot Springs & Columbia R,50.32688,-115.85856,0,172027
172013,Fairmont Lodge,50.32868,-115.84322,0,172013
172028,Hwy 95 & Wills,50.33871,-115.85676,0,172028
172023,Bench at Hwy 95,50.46751,-115.97906,0,172023
172020,Main St E at St Joseph (NB),50.62068,-116.07046,0,172020
172019,Selkirk at Vermillion,50.69796,-116.13497,0,172019
172021,Main St W at Radium,50.62193,-116.07235,0,172021
170009,9th Ave at 18th St,49.51685,-115.05807,0,170009
174011,Pine & Mountain Ash,49.72936,-114.89271,0,174011
170014,Balmer Dr at Alpine Way,50.0061,-114.92646,0,170014
170015,Alpine Way at Almond St,50.01769,-114.92219,0,170015
174006,Alpine Way at Health Ctr,50.02133,-114.91775,0,174006
972000,Invermere Garage,50.51556,-116.03803,0,972000
971000,Kimberley Garage,49.67861,-115.97563,0,971000
974000,Elkford Garage,50.01939,-114.92172,0,974000
174012,Lodge Pole Village,49.76749,-114.89313,0,174012
174013,Elk Valley Mobile Home Park,49.76201,-114.88774,0,174013
174014,Elk Valley Mobile Home Park,49.76197,-114.88758,0,174014
170173,14 Av S & 2 St S,49.50865,-115.76209,0,170173
170481,11th St S & 7th Ave S,49.49789,-115.77153,0,170481
174015,9th Ave & 19th St,49.51643,-115.05868,0,174015
174010,Lwr Elk Vly - Whispering Winds,49.7948,-114.88784,0,174010
174009,Lwr Elk Vly - Little Acres,49.79916,-114.88896,0,174009
170215,2nd St N & Victoria Ave N,49.51381,-115.7525,0,170215
174016,Lwr Elk Vly - Little Acres,49.799,-114.88927,0,174016
174017,Lwr Elk Vly - Whispering Winds,49.79469,-114.888,0,174017
170233,McPhee & Theatre,49.53319,-115.75165,0,170233
170229,Industrial Rd G & Industrial Rd 1,49.53626,-115.76019,0,170229
170220,Industrial Rd G & Industrial Rd 1,49.53587,-115.76042,0,170220
170231,McPhee & Theatre,49.533,-115.75129,0,170231
