stop_id,stop_name,stop_lat,stop_lon,wheelchair_boarding,stop_code
110113,Park at 6th St,49.1512,-123.94393,0,110113
110114,Park at Honey,49.1496,-123.94391,0,110114
110115,Park at 7th St,49.14681,-123.94395,0,110115
110116,Park at Murray,49.14433,-123.94398,0,110116
110368,Village at Hollywood,49.34971,-124.40909,0,110368
110369,Island Hwy W 1990 block,49.34997,-124.40314,0,110369
110388,Jensen Ave E at McCarter,49.3182,-124.31071,0,110388
110389,Jensen Ave E at Weld,49.31816,-124.30789,0,110389
110394,Island Hwy E at Mills,49.31871,-124.30076,0,110394
110395,Island Hwy E 510 block,49.31767,-124.29638,0,110395
110372,Sunrise at Chartwell,49.34614,-124.39365,0,110372
110373,Sunrise at Sutton,49.3455,-124.38828,0,110373
109925,Woodgrove Centre Ex Bay D,49.23638,-124.05263,0,109925
110512,Country Club Exch Bay E,49.20666,-124.00366,0,110512
110418,Island Hwy N at Capilano,49.25114,-124.13249,0,110418
110300,Mary Ellen 6690 block,49.23946,-124.05465,0,110300
109883,Brechin at Estevan,49.19038,-123.96329,0,109883
109802,Country Club Exch Bay H,49.20664,-124.00305,0,109802
109756,Arbot at Westwood,49.16668,-123.9965,0,109756
109757,Arbot at Fountain Gate,49.16675,-124.00144,0,109757
109758,Arbot at South View,49.16677,-124.00353,0,109758
109759,Mill at Westberry,49.16856,-124.00931,0,109759
109760,Ashlee at Mill,49.17024,-124.00926,0,109760
109761,Ashlee at Towerview,49.17015,-124.00269,0,109761
109762,Ashlee at Holland,49.17016,-123.99953,0,109762
110358,Jones at Fern Rd W,49.34589,-124.45012,0,110358
110359,Jones at Fifth Ave W,49.34411,-124.4492,0,110359
104130,Jones at Rupert Rd W,49.33965,-124.44915,0,104130
104131,Arbutus at McRae Plc,49.34198,-124.46183,0,104131
104132,Chestnut at 797 Block,49.34368,-124.46213,0,104132
104133,Arbutus at Birch Ave.,49.3466,-124.46382,0,104133
104134,Arbutus at First Ave W,49.34861,-124.46378,0,104134
104135,Arbutus at Harlech Rd,49.35144,-124.46374,0,104135
104136,Crescent Rd at Arbutus,49.3532,-124.46334,0,104136
104137,Crescent Rd W at Alder,49.35256,-124.45858,0,104137
104139,Crescent Rd W at Beach,49.35249,-124.44861,0,104139
104140,Crescent Rd W at Memorial,49.35246,-124.44377,0,104140
104141,Island Hwy W at 2711 Blk,49.35578,-124.44116,0,104141
104142,Isl Hwy W at 2831 Isl Hwy,49.35439,-124.4486,0,104142
104143,Island Hwy W ACR Bay St,49.35403,-124.45314,0,104143
104144,Isl Hwy W at 3108 Isl Hwy,49.35591,-124.46403,0,104144
104145,Isl Hwy W at Crescent W,49.35856,-124.46801,0,104145
104146,Island Hwy W ACR Beach Dr,49.35957,-124.47034,0,104146
109927,Island Hwy N 6900 block,49.23864,-124.05223,0,109927
109932,Hammond Bay at Marlin,49.23429,-124.04199,0,109932
109933,Hammond Bay at Calinda,49.2342,-124.03889,0,109933
109934,Hammond Bay at Uplands,49.23414,-124.03665,0,109934
109935,Hammond Bay at Turner,49.2341,-124.02854,0,109935
109956,Hammond Bay at Dep Bay,49.20696,-123.96961,0,109956
109957,Departure Bay at Bay,49.20568,-123.97007,0,109957
109887,Departure Bay at Bay,49.20589,-123.96973,0,109887
109888,Dep Bay at Little John,49.2075,-123.97187,0,109888
110515,Country Club Exch Bay B,49.20699,-124.00442,0,110515
109848,Departure Bay at Wassell,49.20765,-124.00067,0,109848
109893,Dep Bay at Little John,49.20737,-123.97257,0,109893
109894,Hammond Bay at Friar Tuck,49.20688,-123.96929,0,109894
110093,Albert at Kennedy,49.15941,-123.94195,0,110093
110111,Pine at Hamilton,49.15869,-123.94562,0,110111
110112,Park at 5th St,49.15531,-123.94386,0,110112
110117,8th St at Cassell,49.1438,-123.94893,0,110117
110118,Bruce at Weeks,49.14045,-123.94981,0,110118
110421,Memorial at Railway,49.34852,-124.44146,0,110421
110363,Village at Berwick Rd N,49.34904,-124.44067,0,110363
110364,Village 290 block,49.34878,-124.43437,0,110364
110365,Village at Hemsworth,49.34845,-124.42799,0,110365
110366,Village at Qualicum,49.34896,-124.42036,0,110366
110367,Village at Nootka,49.34934,-124.41611,0,110367
110370,Bennett at Cardinal,49.34798,-124.39904,0,110370
110371,Sunrise at Lancaster,49.34613,-124.39656,0,110371
110374,Sunrise at Boultbee,49.34534,-124.38509,0,110374
110378,Sunrise at Island Hwy W,49.34885,-124.36837,0,110378
104050,Island Hwy at Lee,49.34622,-124.36073,0,104050
110382,Island Hwy W at Wright,49.33927,-124.35289,0,110382
110383,Island Hwy W at Rushton,49.32657,-124.33494,0,110383
110384,Isl Hwy W at Finholm St N,49.32463,-124.32816,0,110384
110385,Island Hwy W at Moilliet,49.32302,-124.32271,0,110385
110386,McMillan at Island Hwy W,49.32165,-124.31698,0,110386
104044,McMillan at Harrison,49.32025,-124.31693,0,104044
110387,McMillan at Jensen Ave W,49.31871,-124.31674,0,110387
110390,Corfield 280 block,49.316,-124.30717,0,110390
110391,Stanford Ave E at Bagshaw,49.31558,-124.30463,0,110391
110392,McVickers at Stanford,49.31627,-124.30232,0,110392
110393,McVickers at Island Hwy E,49.31875,-124.30235,0,110393
110396,Isl Hwy E at Martindale,49.31629,-124.28835,0,110396
104052,Island Hwy at Riverside,49.31449,-124.27705,0,104052
104045,Island Hwy at Tuan,49.3093,-124.26736,0,104045
104160,Island Hwy E at Huntley,49.30719,-124.26419,0,104160
110399,Northwest Bay 1230 block,49.30475,-124.25907,0,110399
110400,Northwest Bay at Langara,49.30211,-124.25589,0,110400
110401,Northwest Bay at Gabriola,49.29884,-124.2487,0,110401
110402,Northwest Bay at Terrien,49.2999,-124.24315,0,110402
110403,NW Bay at Beaver Crk Whrf,49.30304,-124.23461,0,110403
110404,Northwest Bay at Ballenas,49.301,-124.23094,0,110404
110405,Northwest Bay at Wall Bch,49.29745,-124.22573,0,110405
110406,Northwest Bay at Sanders,49.28961,-124.21272,0,110406
110407,Northwest Bay at Delanice,49.28809,-124.19882,0,110407
110408,Northwest Bay at Claudet,49.28704,-124.19401,0,110408
110409,Northwest Bay at Stewart,49.28615,-124.18909,0,110409
110412,Northwest Bay at Apollo,49.27298,-124.19277,0,110412
104173,Northwest Bay at Isl Hwy,49.26418,-124.1993,0,104173
110415,Island Hwy E at Summerset,49.26099,-124.19523,0,110415
110008,Metral 6530 block,49.23298,-124.04844,0,110008
110015,Mostar at Dunster,49.21297,-124.03461,0,110015
110492,Mostar at Boban,49.20788,-124.03534,0,110492
110261,Jingle Pot at Monterey,49.19984,-124.03487,0,110261
110265,Jingle Pt at E Wellington,49.17229,-124.02075,0,110265
110266,Jingle Pot at Holland,49.17206,-123.99989,0,110266
109763,Jingle Pot at Ashlee,49.16999,-123.99145,0,109763
109920,McGirr at Thyme,49.2355,-124.03189,0,109920
109921,Hammond Bay 6150 block,49.23431,-124.03318,0,109921
110255,Jingle Pot at Holland,49.17215,-123.99997,0,110255
110256,Jingle Pt at E Wellington,49.17241,-124.02099,0,110256
110260,Jingle Pot at Cavendish,49.2005,-124.03513,0,110260
110000,Mostar at Boban,49.20944,-124.03502,0,110000
110496,Island Hwy E 2320 block,49.26378,-124.20178,0,110496
110322,Island Hwy E at Arbutus,49.30735,-124.26403,0,110322
104169,Island Hwy E at Morello,49.26354,-124.20337,0,104169
104148,Crescent Rd W at Rye,49.35251,-124.45168,0,104148
104147,Garrett at Parkridge,49.35723,-124.47132,0,104147
104149,Canyon at 727,49.3551,-124.47275,0,104149
104150,Canyon at Hoylake Rd W,49.35303,-124.46934,0,104150
104157,Arbutus at Hoylake Rd,49.35139,-124.46389,0,104157
104151,Mill Rd at Arbutus,49.34962,-124.46315,0,104151
104152,Mill Rd at Alder St,49.34961,-124.45787,0,104152
104153,Mill Rd at Rye St,49.3496,-124.45304,0,104153
104154,Mill Rd at Beach Rd,49.34948,-124.44794,0,104154
104155,Beach at First Ave W,49.34848,-124.44726,0,104155
104156,Fern Rd AT Beach Rd,49.34623,-124.44734,0,104156
104138,Garrett at Garrett Tn Abt,49.35374,-124.47652,0,104138
109801,Departure Bay at Mexicana,49.20845,-123.9998,0,109801
109799,Departure Bay at Shamrock,49.21015,-123.98941,0,109799
109800,Dep Bay at Rock City,49.20991,-123.99473,0,109800
104047,Barons at Departure Bay,49.20761,-124.00174,0,104047
109804,Barons 3110 block,49.20894,-124.002,0,109804
109846,Ross at Knight,49.20846,-124.00519,0,109846
109849,Departure Bay at Mexicana,49.20873,-123.99821,0,109849
109850,Dep Bay at Rock City,49.20981,-123.99455,0,109850
109851,Departure Bay at Shamrock,49.21002,-123.98912,0,109851
109968,Wallace at Comox,49.16958,-123.94222,0,109968
109969,Wallace at Campbell,49.16824,-123.94189,0,109969
109772,Wallace at Fitzwilliam,49.16556,-123.9397,0,109772
109773,Victoria at Albert,49.1634,-123.93574,0,109773
109764,Jingle Pot at Calder,49.16909,-123.98704,0,109764
109766,Jingle Pot at Bird Sanc,49.16655,-123.96917,0,109766
109767,Jingle Pot at Sarum Rise,49.16653,-123.96312,0,109767
109768,Wakesiah at Beaconsfield,49.16514,-123.96113,0,109768
109769,Wakesiah at Foster,49.16168,-123.96124,0,109769
110101,4th St at Wheatley,49.15891,-123.95618,0,110101
110102,Howard at Foster,49.16122,-123.9552,0,110102
110103,Howard at 3rd St,49.1626,-123.95519,0,110103
110104,Howard at 2nd St,49.16613,-123.95517,0,110104
110105,Pine at Wentworth,49.16603,-123.95089,0,110105
110106,Pine at Fitzwilliam,49.16386,-123.9504,0,110106
110107,Pine at 4th St,49.15919,-123.9461,0,110107
110108,Albert at Milton,49.16008,-123.94089,0,110108
110109,Albert at Prideaux,49.16094,-123.93978,0,110109
110110,Albert at Robarts,49.16244,-123.93787,0,110110
110163,Ext at Country Hills,49.11288,-123.92851,0,110163
110164,Cinnabar at Ranchview,49.1092,-123.9321,0,110164
110165,Cinnabar at Tait,49.10755,-123.93211,0,110165
110166,Cinnabar at Stacey,49.10442,-123.93216,0,110166
110167,Stacey at Stannard,49.10402,-123.93,0,110167
110168,Stacey at Szasz,49.10546,-123.92745,0,110168
110169,Porter at Richardson,49.10504,-123.92394,0,110169
110170,Richardson at Torkko,49.10664,-123.92471,0,110170
110171,Richardson at Ranchview,49.10947,-123.9266,0,110171
110172,Richardson at Extension,49.11175,-123.92848,0,110172
110173,Extension at Rajeena,49.11376,-123.92714,0,110173
110174,Extension at Lenwood,49.1173,-123.92358,0,110174
110175,Extension at Roberta Rd E,49.11934,-123.92268,0,110175
110176,Cranberry at Extension,49.12422,-123.91988,0,110176
110206,Cranberry at Cran Cnctr,49.12577,-123.91983,0,110206
110190,Cedar at Gould Rd W,49.09598,-123.85056,0,110190
110191,Gould at Yellow Point,49.0956,-123.84763,0,110191
110192,Yellow Point at Gould,49.09691,-123.84811,0,110192
110193,Cedar at Woobank,49.09897,-123.85158,0,110193
110194,Woobank at Ara,49.10214,-123.85026,0,110194
110195,Woobank at Blue Jay,49.10533,-123.85029,0,110195
110196,Woobank at Starling,49.11015,-123.85017,0,110196
110197,Woobank at Holden Corso,49.11544,-123.85039,0,110197
110198,Holden Corso at Canin,49.11553,-123.85589,0,110198
110199,Holden Corso at MacMillan,49.11557,-123.86338,0,110199
110200,MacMillan at Duke Point,49.11798,-123.86577,0,110200
110201,Cedar at Wilkinson,49.11631,-123.88169,0,110201
110202,Cedar at Clifford,49.11914,-123.88892,0,110202
110203,Cedar at Frew,49.12073,-123.90342,0,110203
110204,Cedar Rd. at Fielding Rd.,49.12351,-123.91134,0,110204
110205,Cedar at Maki,49.12488,-123.91563,0,110205
110157,Lawlor at 11th St,49.12998,-123.92401,0,110157
110474,Haliburton at Highview,49.14271,-123.9261,0,110474
110475,Haliburton 840 block,49.14582,-123.93076,0,110475
110476,Haliburton at Woodhouse,49.14741,-123.93175,0,110476
110477,Haliburton at Robins,49.15082,-123.93225,0,110477
110478,Haliburton at Needham,49.15366,-123.93241,0,110478
110479,Haliburton at Sabiston,49.15544,-123.93251,0,110479
110071,VIU Exchange Bay A,49.1579,-123.96678,0,110071
109889,Dep Bay at Merry Men,49.2085,-123.9774,0,109889
109890,Dep Bay at Smugglers Hill,49.21025,-123.98397,0,109890
109891,Departure Bay at Charles,49.21011,-123.98479,0,109891
109892,Dep Bay at Merry Men,49.20833,-123.97739,0,109892
109928,Mary Ellen 6680 block,49.23871,-124.05402,0,109928
109826,Dover at Mary Ellen,49.24166,-124.05338,0,109826
109827,Dover at Dickinson,49.24162,-124.04986,0,109827
109828,Dover at Lewis,49.24152,-124.04566,0,109828
109829,Dover at Applecross,49.24142,-124.04238,0,109829
109929,Dover at Blueback,49.24142,-124.0388,0,109929
109930,Dover at Invermere,49.24139,-124.03532,0,109930
109931,Dover at McGirr,49.24139,-124.03278,0,109931
109919,McGirr at McRobb,49.23961,-124.03199,0,109919
109936,Hammond Bay at Clipper,49.23417,-124.02488,0,109936
109937,Hammond Bay at Rutherford,49.23409,-124.01828,0,109937
109938,Hammond Bay at Norasea,49.23396,-124.00994,0,109938
109939,Hammond Bay at Yorkshire,49.2339,-124.00598,0,109939
109940,Hammond Bay at Fillinger,49.2338,-123.9957,0,109940
109941,Hammond Bay at Dunn,49.23315,-123.99243,0,109941
109942,Hammond Bay at Williamson,49.23175,-123.98876,0,109942
109943,Hammond Bay at Malaspina,49.23103,-123.98375,0,109943
109944,Hammond Bay at Frontage,49.23137,-123.98011,0,109944
109945,Hammond Bay at McGuffie,49.231,-123.97437,0,109945
109946,Hammond Bay at Tiki,49.23052,-123.96911,0,109946
109947,Hammond Bay at Piper,49.22852,-123.96333,0,109947
109948,Hammond Bay at Overlook,49.22629,-123.95847,0,109948
109949,Hammond Bay at Lagoon,49.22516,-123.95391,0,109949
109950,Hammond Bay at Overlook,49.22237,-123.95037,0,109950
109951,Hammond Bay at Oakridge,49.21929,-123.95186,0,109951
109952,Hammond Bay at Linley,49.21719,-123.95522,0,109952
109953,Hammond Bay at Nottingham,49.21354,-123.95653,0,109953
109954,Hammond Bay at Rickers,49.21152,-123.95761,0,109954
110516,Country Club Exch Bay A,49.20719,-124.00491,0,110516
109958,Departure Bay at Loat,49.20334,-123.97104,0,109958
109959,Departure Bay at Argyle,49.19799,-123.9714,0,109959
109960,Dep Bay at Sandringham,49.19591,-123.97127,0,109960
109860,Departure Bay at Estevan,49.19166,-123.96672,0,109860
109961,Brechin at Estevan,49.19025,-123.9626,0,109961
109962,Brechin at Bayview,49.19018,-123.95772,0,109962
109963,Brechin at Beach,49.18969,-123.95551,0,109963
109880,Departure Bay Ferry,49.19172,-123.95319,0,109880
109964,Stewart at Maple,49.18723,-123.95015,0,109964
109965,Stewart at Larch,49.185,-123.94768,0,109965
109966,Stewart at Cypress,49.17984,-123.94567,0,109966
109967,Stewart at Townsite,49.17753,-123.94457,0,109967
109870,Stewart at Mt Benson,49.17587,-123.94384,0,109870
109871,Stewart at Dawes,49.17353,-123.94281,0,109871
110350,Village at Qualicum,49.34899,-124.4213,0,110350
110351,Village at Hemsworth,49.34857,-124.42798,0,110351
110352,Village 310 block,49.34882,-124.43284,0,110352
104022,Fern at Primrose,49.34609,-124.44464,0,104022
104023,Fern at Memorial,49.34606,-124.44229,0,104023
104024,Fern at Berwick Rd S,49.34605,-124.43948,0,104024
104026,Berwick at Sixth Ave. E,49.34365,-124.43908,0,104026
104158,Berwick at Garden,49.34209,-124.43909,0,104158
104171,Berwick Rd at 885 Block,49.34027,-124.43913,0,104171
104028,Rupert Rd E at Berwick,49.33925,-124.43869,0,104028
104029,Rupert Rd E at Qualicum,49.33926,-124.4203,0,104029
104060,Rupert at Hollywood,49.33929,-124.40972,0,104060
104061,Rupert at Bluebird,49.3393,-124.40554,0,104061
104062,Rupert E at Ravensbourne,49.34159,-124.39923,0,104062
104063,Miraloma at Chartwest,49.34295,-124.39848,0,104063
104064,Chartwell at Miraloma Dr,49.3424,-124.39319,0,104064
104065,Ormonde Rd at Devon,49.34356,-124.39149,0,104065
104066,Ormonde at Yambury,49.34294,-124.38806,0,104066
104067,Ormonde at Boultbee,49.34296,-124.38513,0,104067
104068,Boultbee acr Bunker Plc,49.34395,-124.38472,0,104068
110375,Sunrise at Nicolls,49.34473,-124.38183,0,110375
110376,Sunrise at Drew,49.34556,-124.37729,0,110376
104077,Pintail Dr at Johnstone,49.35219,-124.37922,0,104077
104078,Pintail at Point Mercer,49.35285,-124.38281,0,104078
104079,Pintail at Yambury Rd,49.35394,-124.38828,0,104079
104080,Pintail at Eaglecrest Dr,49.35459,-124.3929,0,104080
104113,Eaglecrest at Mallard,49.35201,-124.39514,0,104113
104115,Harlequin at Wood Duck,49.35044,-124.39486,0,104115
104116,Royal Dornoch at Fairways,49.34977,-124.39904,0,104116
104118,Royal Dornoch at Troon,49.3528,-124.40332,0,104118
104119,Country Club at Fairways,49.35116,-124.40506,0,104119
104120,Hwy 19A at Milner Gardens,49.35364,-124.41508,0,104120
104121,Hwy 19A at Qualicum Rd,49.35568,-124.42137,0,104121
104122,Hwy 19A at Hall Rd,49.35639,-124.42514,0,104122
104123,Hemsworth ACR Quatsino Rd,49.35547,-124.42823,0,104123
104124,Hemsworth at Dogwood Rd,49.35329,-124.42828,0,104124
104125,Dogwood at Qualicum Rd,49.35309,-124.42117,0,104125
104127,Qualicum at Chester Rd,49.34988,-124.42089,0,104127
110354,Memorial at Fern Rd W,49.34636,-124.44179,0,110354
110064,Bruce at 4th St,49.15862,-123.94961,0,110064
110065,Bruce at Albion,49.15666,-123.94969,0,110065
110066,5th St at Georgia,49.15524,-123.95187,0,110066
110068,5th St at Hillcrest,49.15524,-123.95956,0,110068
110069,Wakesiah at Queen,49.15745,-123.96105,0,110069
110072,Wakesiah at Foster,49.16129,-123.961,0,110072
110073,Wakesiah at Beaconsfield,49.16487,-123.96096,0,110073
110074,Wakesiah at 160 block,49.16812,-123.96094,0,110074
110075,Wakesiah at 120 block,49.16989,-123.96092,0,110075
110077,Bowen at East Wellington,49.18091,-123.97845,0,110077
110078,Bowen at Townsite,49.18269,-123.98093,0,110078
110079,Bowen at James,49.1849,-123.98347,0,110079
109830,Uplands at McRobb,49.23904,-124.03884,0,109830
109831,Uplands 6100 block,49.23663,-124.03725,0,109831
109832,Uplands 5480 block,49.23367,-124.0373,0,109832
109833,Uplands at Parkwood,49.23127,-124.03726,0,109833
109834,Uplands at Turner,49.22603,-124.03547,0,109834
109836,Uplands at Edgewater,49.22208,-124.03109,0,109836
109837,Uplands 4590 block,49.22,-124.0279,0,109837
109838,Uplands at Songbird,49.21889,-124.02469,0,109838
109839,Uplands at Butternut,49.21849,-124.01983,0,109839
110451,Uplands at Littleford,49.21692,-124.01443,0,110451
110500,Wakesiah at 110 block,49.17002,-123.9611,0,110500
110498,Wakesiah 170 block,49.16779,-123.9611,0,110498
110452,Uplands at Long Lake,49.21684,-124.0088,0,110452
110453,Uplands at Sunrise,49.21618,-124.0055,0,110453
110454,Uplands 3450 block,49.21553,-124.00102,0,110454
104174,Emerald Dr AT Uplands Dr,49.21351,-123.99963,0,104174
110456,Emerald at Crystal Plc,49.21197,-124.0024,0,110456
109845,Ross at Emerald,49.21046,-124.00298,0,109845
109847,Country Club Exch Bay G,49.20642,-124.00311,0,109847
110482,Wakesiah at Queen,49.15781,-123.96125,0,110482
110483,5th St at Hillcrest,49.15514,-123.95953,0,110483
110484,5th St at Calverley,49.15511,-123.95456,0,110484
110485,5th St at Shepherd,49.15508,-123.95088,0,110485
109775,Front at Museum,49.16632,-123.93518,0,109775
109776,Front at Church,49.16843,-123.93672,0,109776
109972,Comox at Wallace,49.17027,-123.94293,0,109972
109973,Comox at Prideaux,49.17036,-123.94522,0,109973
109974,Comox at Kennedy,49.17052,-123.94907,0,109974
109975,Bowen at Howard,49.17121,-123.95472,0,109975
109976,Bowen at Wakesiah,49.1732,-123.96024,0,109976
109980,Waddington at St George,49.18109,-123.96331,0,109980
109981,Waddington at Oakley,49.18346,-123.96259,0,109981
109982,Dufferin at Seafield,49.18443,-123.96719,0,109982
109983,Dufferin at Boundary,49.18327,-123.97181,0,109983
109984,Boundary at Nightingale,49.18578,-123.97219,0,109984
109771,Fitzwilliam at Wesley,49.16553,-123.94113,0,109771
110505,Bastion at Skinner,49.16629,-123.93754,0,110505
110009,Metral at Enterprise,49.23115,-124.04409,0,110009
110010,Metral 6300 block,49.2288,-124.04358,0,110010
110011,Metral at Emporer,49.225,-124.04302,0,110011
110012,Metral at Turner,49.22142,-124.04128,0,110012
110013,Metral at Bergen Op Zoom,49.21771,-124.03703,0,110013
110014,Metral at Somerset,49.21544,-124.03139,0,110014
109874,Victoria at Albert,49.16358,-123.93592,0,109874
110091,Albert at Dunsmuir,49.16274,-123.93773,0,110091
110092,Albert at Selby,49.16168,-123.9391,0,110092
110094,Pine at Durham,49.15943,-123.94619,0,110094
109754,Jingle Pot at Calder,49.16921,-123.98713,0,109754
109755,Westwood at Rockwood,49.16937,-123.99121,0,109755
110063,Fitzwilliam at Machleary,49.16371,-123.94891,0,110063
110501,Bowen at Cienar,49.201,-123.99986,0,110501
110489,107th St at Victoria,49.20714,-124.00782,0,110489
110090,Norwell at 107th St,49.20771,-124.00655,0,110090
110514,Country Club Exch Bay C,49.20689,-124.00419,0,110514
110444,Uplands at Departure Bay,49.20994,-123.99718,0,110444
110445,Uplands at Mexicana,49.2115,-123.99806,0,110445
110446,Uplands at Villa,49.21321,-123.99845,0,110446
110447,Uplands 3510 block,49.21607,-124.00273,0,110447
110449,Uplands at Long Lake,49.21693,-124.00883,0,110449
110450,Uplands at Bournemouth,49.21702,-124.01263,0,110450
109811,Uplands at Stonewood,49.21734,-124.01707,0,109811
109812,Uplands at Butternut,49.21842,-124.01926,0,109812
109813,Uplands at Songbird,49.21896,-124.02422,0,109813
109814,Uplands at Primrose,49.22009,-124.02752,0,109814
109815,Uplands at Edgewater,49.22217,-124.03081,0,109815
109816,Uplands at Turner,49.22641,-124.03549,0,109816
109817,Uplands at Parkwood,49.23134,-124.03705,0,109817
109818,Uplands at Leah,49.23482,-124.03699,0,109818
109819,Uplands at Ocean Walk,49.23642,-124.0369,0,109819
109820,Uplands at McRobb,49.23865,-124.03823,0,109820
109821,Dover at Blueback,49.24157,-124.04064,0,109821
109823,Dover at Lewis,49.24166,-124.046,0,109823
109824,Dover at Harrier,49.24174,-124.04935,0,109824
109825,Mary Ellen at Dover,49.2413,-124.05405,0,109825
110494,3rd St at Hillcrest,49.16272,-123.95925,0,110494
110127,Bruce at Duke,49.15163,-123.94951,0,110127
109993,Labieux at Autumnwood,49.19923,-124.00336,0,109993
109994,Labieux at Porcupine Hill,49.19925,-124.00813,0,109994
109995,Labieux at Oriole,49.19927,-124.01112,0,109995
109987,Meredith at Thunderbird,49.1883,-123.97411,0,109987
109988,Meredith at Manchester,49.18833,-123.98107,0,109988
109989,Meredith at Robbie,49.18836,-123.98647,0,109989
110513,Country Club Exch Bay D,49.20676,-124.00387,0,110513
109996,Labieux at Black Franks,49.19997,-124.01574,0,109996
109998,Jingle Pot at Yon,49.20568,-124.02603,0,109998
109999,Boban at Mostar,49.2087,-124.03329,0,109999
104035,Mostar at Jordan,49.21199,-124.03487,0,104035
110001,Metral at Somerset,49.21557,-124.03139,0,110001
110002,Metral at Bergen Op Zoom,49.21806,-124.03736,0,110002
110003,Metral at Turner,49.22202,-124.04144,0,110003
110004,Metral at Emporer,49.22489,-124.04282,0,110004
110005,Metral 6300 block,49.22877,-124.04341,0,110005
110006,Metral at Enterprise,49.23116,-124.04378,0,110006
110007,Metral 6530 block,49.23301,-124.04813,0,110007
110082,Rosstown at Woodside,49.19638,-124.00085,0,110082
110083,Rosstown 2440 block,49.19563,-124.0042,0,110083
109991,Bowen at Northfield,49.19282,-123.99235,0,109991
110081,Rosstown at Whitney,49.19565,-123.99739,0,110081
110084,Rosstown at Sparrow,49.19559,-124.00821,0,110084
110085,Rosstown at Pheasant,49.19566,-124.01367,0,110085
110086,Pheasant at Stampede,49.19762,-124.01398,0,110086
110020,Labieux at Troy Anne,49.19915,-124.00938,0,110020
110021,Labieux at Autumnwood,49.19912,-124.00389,0,110021
110213,Norwell at 107th St,49.20796,-124.00698,0,110213
110214,Norwell at 105th St,49.20873,-124.01045,0,110214
110215,Norwell at Victoria,49.20797,-124.01516,0,110215
110149,Victoria at Pine,49.15491,-123.9361,0,110149
110150,Victoria at Needham,49.15359,-123.93635,0,110150
110151,Victoria at Rainer,49.14971,-123.93702,0,110151
110152,Victoria at South,49.14806,-123.93734,0,110152
110153,Old Victoria at Bowlsby,49.14092,-123.93036,0,110153
110154,Old Victoria at McKenzie,49.1392,-123.92853,0,110154
110155,Old Victoria at Melideo,49.13742,-123.92576,0,110155
110156,Old Victoria 1100 block,49.13573,-123.92305,0,110156
110120,Howard at Weber,49.14259,-123.95544,0,110120
110121,Howard 860 block,49.14513,-123.95537,0,110121
110122,Howard at 7th St,49.14711,-123.95537,0,110122
110123,7th St at Georgia,49.14751,-123.95346,0,110123
110124,7th St at Bruce,49.14749,-123.95033,0,110124
110125,Bruce at Hewgate,49.14932,-123.94955,0,110125
110503,4th St at Howard,49.1589,-123.95485,0,110503
110128,Bruce at Dundas,49.15312,-123.94968,0,110128
110129,Bruce at 6th St,49.15087,-123.9497,0,110129
110130,Bruce at Hewgate,49.14937,-123.94972,0,110130
110131,Bruce at 7th St,49.1479,-123.94973,0,110131
110132,7th St at Georgia,49.14761,-123.95372,0,110132
110133,Howard at Nova,49.14645,-123.95552,0,110133
110134,Howard at 8th St,49.14323,-123.95556,0,110134
110135,Howard at 9th St,49.14039,-123.95559,0,110135
110018,Jingle Pot at Sloan,49.20446,-124.02254,0,110018
110019,Labieux at Black Franks,49.1999,-124.01588,0,110019
110099,Howard at Foster,49.16106,-123.95536,0,110099
109777,Comox at Terminal,49.17032,-123.9402,0,109777
110470,Vancouver at Bryden,49.17394,-123.94431,0,110470
110471,Vancouver at Townsite,49.17741,-123.94585,0,110471
109780,Townsite at Terminal Ave,49.17717,-123.94814,0,109780
109781,Townsite at Churchill,49.17706,-123.9522,0,109781
109782,Townsite at Millstone,49.17707,-123.95454,0,109782
109783,Millstone at Hunter,49.17928,-123.9549,0,109783
109784,Millstone at Cadogan,49.18144,-123.95482,0,109784
109785,Princess Royal at Hemlock,49.18303,-123.95274,0,109785
109786,Estevan at Brierley,49.18501,-123.95457,0,109786
109787,Estevan at Maple,49.18728,-123.95811,0,109787
109788,Estevan at Brechin,49.1897,-123.96243,0,109788
109789,Departure Bay at Estevan,49.19172,-123.96636,0,109789
109790,Marlborough at Lynburn,49.1938,-123.97146,0,109790
110095,Pine at Fitzwilliam,49.16397,-123.9502,0,110095
110096,Pine at Wentworth,49.16565,-123.95062,0,110096
110097,2nd St at Howard,49.16662,-123.95489,0,110097
110098,Howard at 3rd St,49.16325,-123.95532,0,110098
110100,4th St at Wheatley,49.15899,-123.95596,0,110100
109750,Jingle Pot at Sarum Rise,49.16665,-123.9633,0,109750
110145,Irwin at Esplanade,49.16169,-123.93165,0,110145
110146,Irwin at Milton,49.15817,-123.93143,0,110146
110147,Milton at Haliburton,49.15801,-123.93321,0,110147
110148,Victoria at Kennedy,49.15731,-123.93567,0,110148
110159,Cranberry at Cassidy,49.1261,-123.92002,0,110159
110160,Extension at Cranberry,49.12343,-123.9207,0,110160
110207,Terminal Ave N 1220 block,49.18359,-123.95573,0,110207
110208,Terminal Ave at Rosehill,49.1757,-123.94681,0,110208
110209,Terminal Ave at Rosehill,49.17651,-123.94693,0,110209
110210,Terminal Ave N 1280 block,49.18447,-123.95644,0,110210
110161,Extension at Roberta Rd E,49.11954,-123.92292,0,110161
109791,Glenayr at Marlborough,49.19632,-123.97611,0,109791
109792,Glenayr at Argyle,49.19954,-123.97616,0,109792
109793,Glenayr at Lynburn,49.20199,-123.97611,0,109793
109794,Glenayr at Wingrove,49.20498,-123.97605,0,109794
109795,Bay at Haliday,49.20626,-123.98006,0,109795
109796,Bay at Newton,49.2063,-123.98419,0,109796
109797,Neyland at Crestwood,49.20738,-123.98825,0,109797
109798,Neyland at Departure Bay,49.20903,-123.98727,0,109798
110162,Extension at Lenwood,49.11707,-123.92426,0,110162
110177,Cedar at Nanaimo,49.12461,-123.91508,0,110177
110178,Cedar at Fielding,49.12341,-123.91134,0,110178
110179,Cedar at Frew,49.12062,-123.90351,0,110179
110180,Cedar at Clifford,49.11931,-123.88956,0,110180
110181,Cedar at Wilkinson,49.11614,-123.88152,0,110181
110182,Cedar at Torberg,49.1143,-123.87462,0,110182
110183,Cedar at Gerrand,49.11292,-123.87052,0,110183
110184,Cedar at MacMillan,49.11174,-123.86874,0,110184
110185,Cedar at Burchell,49.1089,-123.86534,0,110185
110186,Cedar at Brix,49.10668,-123.86172,0,110186
110187,Cedar at Hemer,49.1045,-123.85953,0,110187
110189,Cedar at Woobank,49.09898,-123.85179,0,110189
110137,Bruce at Weeks,49.1405,-123.94963,0,110137
110138,Bruce at Weber,49.143,-123.94961,0,110138
110139,Park at Murray,49.14436,-123.94382,0,110139
110140,Park at 7th St,49.14728,-123.94381,0,110140
110141,Park at Honey,49.14942,-123.94379,0,110141
110142,Park at 6th St,49.15137,-123.94375,0,110142
110143,Park at 5th St,49.15555,-123.94369,0,110143
110144,Pine at Hamilton,49.15876,-123.94551,0,110144
110487,Bruce at 4th St,49.1592,-123.94946,0,110487
110488,Fitzwilliam at Machleary,49.16361,-123.94874,0,110488
104056,Deep Bay Marina,49.46445,-124.72594,0,104056
104054,Island Highway 6900 block,49.43471,-124.67435,0,104054
104053,Isl Hwy W at Lion's Way,49.40433,-124.63162,0,104053
104165,Island Hwy NS Fisheries,49.39697,-124.61131,0,104165
110355,Garden Rd W at Primrose,49.3424,-124.44336,0,110355
110356,Garden Rd W at Beach,49.34237,-124.44745,0,110356
110357,Jones at Sixth Ave W,49.34367,-124.44904,0,110357
109873,Front at Esplanade,49.16385,-123.93233,0,109873
110016,Boban at Mostar,49.20858,-124.03355,0,110016
110017,Jingle Pot at Elmwood,49.20582,-124.02701,0,110017
110087,Jingle Pot at Chantrells,49.20593,-124.019,0,110087
110088,Norwell at Victoria,49.20794,-124.01493,0,110088
110511,Country Club Exch Bay F,49.20652,-124.00333,0,110511
110025,Meredith at Robbie,49.18822,-123.98643,0,110025
110026,Meredith at Forest,49.1882,-123.98094,0,110026
110027,Meredith at Thunderbird,49.18819,-123.97381,0,110027
110030,Boundary at Nightingale,49.18567,-123.97246,0,110030
110031,Dufferin at Boundary,49.18313,-123.97181,0,110031
110032,Dufferin at Seafield,49.1837,-123.96919,0,110032
110033,Dufferin at Grant,49.18437,-123.96681,0,110033
110034,Waddington at Oakley,49.18343,-123.9628,0,110034
110035,Waddington at St George,49.18153,-123.96327,0,110035
110036,Townsite at Waddington,49.17914,-123.96535,0,110036
110039,Bowen at Wakesiah,49.17306,-123.96034,0,110039
110040,Bowen at Howard,49.17109,-123.95483,0,110040
110041,Comox at Kennedy,49.17031,-123.94888,0,110041
110042,Comox at Prideaux,49.17018,-123.94471,0,110042
110228,Superior at Stone,49.24761,-124.10566,0,110228
110223,Vandenhoek at Superior,49.24832,-124.10176,0,110223
110229,Lantzville at Superior,49.25301,-124.10112,0,110229
110230,Lantzville 7570 block,49.25292,-124.09647,0,110230
110231,Lantzville at Hall,49.25289,-124.08935,0,110231
110232,Lantzville at Peterson,49.25292,-124.08409,0,110232
110233,Lantzville at Huddlestone,49.25243,-124.07953,0,110233
110234,Lantzville at Tweedhope,49.25103,-124.07624,0,110234
110235,Dickinson at Jacks,49.25121,-124.0706,0,110235
110236,Dickinson at Warick,49.25026,-124.06473,0,110236
110237,Dickinson at Schook,49.2468,-124.05706,0,110237
110238,Dickinson at Groveland,49.24413,-124.05408,0,110238
109875,Fitzwilliam at Wesley,49.1656,-123.94146,0,109875
104166,Leon Rd FS Horne Lake Rd,49.38715,-124.61093,0,104166
110216,Aulds at Clark,49.23463,-124.06211,0,110216
110217,Aulds at Arbutus,49.23449,-124.06558,0,110217
110218,Aulds at Phantom,49.23577,-124.07415,0,110218
110219,Aulds at Ware,49.24025,-124.08406,0,110219
110220,Philip at Aulds,49.24045,-124.0865,0,110220
110221,Philip at Andrea,49.24305,-124.08648,0,110221
110222,Philip at Forest Turn,49.24694,-124.09058,0,110222
110224,Superior at Stone,49.2477,-124.10586,0,110224
110225,Southwind at Superior,49.24651,-124.11486,0,110225
109979,Townsite at McKay,49.17936,-123.967,0,109979
110353,Village at Memorial,49.34923,-124.43867,0,110353
109922,Hammond Bay at Uplands,49.23438,-124.03821,0,109922
109923,Hammond Bay at Marlin,49.23446,-124.04169,0,109923
109997,Labieux at Ardoon,49.20412,-124.02084,0,109997
110459,Pheasant at Stampede,49.19742,-124.01415,0,110459
110460,Rosstown at Sun Valley,49.19553,-124.01216,0,110460
110461,Rosstown at Sparrow,49.1955,-124.00832,0,110461
110462,Rosstown 2430 block,49.19551,-124.0039,0,110462
110463,Rosstown at Woodside,49.19627,-124.00072,0,110463
110464,Rosstown at Whitney,49.19578,-123.99791,0,110464
104183,Downtown Nanaimo Ex Bay G,49.16441,-123.93134,0,104183
104182,Downtown Nanaimo Ex Bay F,49.16426,-123.93151,0,104182
104055,Thmpsn Clrk at Hnry Mrgn,49.43872,-124.67764,0,104055
888886,Bald Eagle at Blue Heron,49.4465,-124.69082,0,888886
555555,Seaview at Shoreline,49.456,-124.71067,0,555555
104180,Downtown Nanaimo Ex Bay D,49.16396,-123.93181,0,104180
104011,Jingle Pot at Ashlee,49.1703,-123.99178,0,104011
104178,Downtown Nanaimo Ex Bay B,49.16426,-123.93158,0,104178
109778,Stewart at Dawes,49.17426,-123.94281,0,109778
109779,Stewart at Mt Benson,49.17587,-123.94352,0,109779
109876,Stewart at Townsite,49.17802,-123.94448,0,109876
109877,Stewart at Cypress,49.18035,-123.94558,0,109877
109878,Stewart at Larch,49.1849,-123.94739,0,109878
109879,Stewart at Maple,49.18714,-123.94964,0,109879
109881,Brechin at Beach,49.18997,-123.95579,0,109881
109882,Brechin at Ocean,49.19031,-123.95813,0,109882
109884,Dep Bay at Sandringham,49.19608,-123.97112,0,109884
109885,Departure Bay at Argyle,49.19798,-123.97121,0,109885
104186,Bruce at Mulberry,49.13775,-123.94993,0,104186
104190,Tenth St. at Douglas Ave.,49.13603,-123.93812,0,104190
104192,Tenth St at Southside,49.13527,-123.92947,0,104192
104776,Lawlor at Eleventh St.,49.13026,-123.92385,0,104776
104773,Tmbrlnds at Tmbrlnds Pk,49.04355,-123.88008,0,104773
104774,Timberlands at Trans Can,49.04516,-123.87417,0,104774
104193,Tenth St. at Southside,49.13588,-123.9305,0,104193
109908,Hammond Bay at Salmon Bry,49.23119,-123.98458,0,109908
109909,Hammond Bay at Williamson,49.23231,-123.98976,0,109909
109910,Hammond Bay at Dunn,49.23335,-123.99262,0,109910
109911,Hammond Bay at Fillinger,49.23393,-123.99611,0,109911
109912,Hammond Bay at Yorkshire,49.234,-124.00666,0,109912
109913,Hammond Bay at Norasea,49.23412,-124.01054,0,109913
109914,Hammond Bay at Parkway,49.2342,-124.01766,0,109914
109915,Hammond Bay at Brickyard,49.23428,-124.02558,0,109915
109916,Brickyard at Broadway,49.23797,-124.02625,0,109916
109917,Brickyard at Sunset,49.24044,-124.02627,0,109917
109918,Waldbank at Rose,49.24149,-124.02721,0,109918
110504,Dover at Invermere,49.24155,-124.03434,0,110504
109886,Departure Bay at Wingrove,49.20362,-123.97064,0,109886
109896,Hammond Bay at Rickers,49.21125,-123.9578,0,109896
109897,Hammond Bay at Nottingham,49.21345,-123.95633,0,109897
109898,Hammond Bay at Linley,49.21716,-123.95503,0,109898
109899,Hammond Bay at Meadow Ln,49.21922,-123.95178,0,109899
109900,Hammond Bay at Planta,49.22005,-123.94871,0,109900
109901,Hammond Bay at Overlook,49.22272,-123.95058,0,109901
109902,Hammond Bay at Lagoon,49.22542,-123.95419,0,109902
109903,Hammond Bay at Overlook,49.22672,-123.95919,0,109903
109904,Hammond Bay at Piper,49.22852,-123.96309,0,109904
109905,Hammond at Morningside,49.23042,-123.96761,0,109905
109906,Hammond Bay at McGuffie,49.23102,-123.97374,0,109906
109907,Hammond Bay at Frontage,49.23149,-123.97966,0,109907
110481,Haliburton at Crace,49.16159,-123.9328,0,110481
104181,Downtown Nanaimo Ex Bay E,49.16409,-123.93168,0,104181
104179,Downtown Nanaimo Ex Bay C,49.16442,-123.93142,0,104179
104187,Bruce at Mulberry,49.13771,-123.94959,0,104187
904000,Nanaimo Transit Yard,49.23534,-124.04135,0,904000
110299,Jensen Ave E at Craig,49.31839,-124.31149,0,110299
104775,YCD Nanaimo Airport,49.05255,-123.87463,0,104775
104194,Schoolhouse at Morden,49.09394,-123.88513,0,104194
104195,S Wellington at Morden,49.09413,-123.88919,0,104195
110304,Island Hwy N at Mallard,49.25175,-124.13155,0,110304
110307,Northwest Bay 3190 block,49.2642,-124.19918,0,110307
110308,Northwest Bay at Apollo,49.27304,-124.19259,0,110308
110309,Northwest Bay at Cross,49.27673,-124.19095,0,110309
110310,Northwest Bay 2610 block,49.28304,-124.18859,0,110310
110311,Northwest Bay at Stewart,49.28691,-124.18967,0,110311
110312,Northwest Bay at Claudet,49.28733,-124.19485,0,110312
110313,Northwest Bay at Delanice,49.28824,-124.19908,0,110313
110314,Northwest Bay at Sanders,49.28975,-124.21327,0,110314
110315,Northwest Bay at Wall Bch,49.29752,-124.22565,0,110315
110316,Northwest Bay at Ballenas,49.30108,-124.23081,0,110316
110317,NW Bay at Beaver Crk Whrf,49.30317,-124.23525,0,110317
110318,Northwest Bay at Terrien,49.29992,-124.24326,0,110318
110319,Northwest Bay at Gabriola,49.299,-124.24821,0,110319
110320,Northwest Bay at Langara,49.30285,-124.25657,0,110320
110321,Northwest Bay 1230 block,49.30492,-124.25897,0,110321
104046,Island Hwy at Resort Way,49.30949,-124.26736,0,104046
104159,Island Hwy at Rath Rd,49.31428,-124.27589,0,104159
104051,Island Hwy at Riverside,49.31531,-124.27928,0,104051
110325,Island Hwy E 670 block,49.31658,-124.28913,0,110325
110326,Island Hwy E 500 block,49.31791,-124.29645,0,110326
110293,McVickers at Island Hwy E,49.31855,-124.30253,0,110293
110294,McVickers at Stanford,49.3166,-124.30247,0,110294
110295,Stanford Ave E at Bagshaw,49.3157,-124.30466,0,110295
110296,Corfield 270 block,49.31605,-124.30697,0,110296
110297,Corfield at Jensen Ave E,49.31761,-124.30702,0,110297
110298,Jensen Ave E at McCarter,49.31829,-124.30939,0,110298
110507,Jensen Ave W at McMillan,49.31854,-124.31611,0,110507
110288,McMillan at Harrison,49.32028,-124.31672,0,110288
110328,Island Hwy at Sutherland,49.32231,-124.31829,0,110328
110329,Island Hwy W at Moilliet,49.32365,-124.32418,0,110329
110330,Island Hwy W at Roscow,49.32446,-124.32701,0,110330
110331,Island Hwy W at Rushton,49.32674,-124.33483,0,110331
104059,Isl Hwy W at Wembley Mall,49.33186,-124.34487,0,104059
110335,Island Hwy W at Wright,49.3404,-124.35395,0,110335
104049,Island Hwy at Lee,49.34514,-124.35914,0,104049
110346,Island Hwy W 2010 block,49.35001,-124.40238,0,110346
110347,Village 840 block,49.34994,-124.4069,0,110347
110348,Village at Hollywood,49.34974,-124.41049,0,110348
110349,Village at Nootka,49.34939,-124.41694,0,110349
104075,Island Hwy W at Columbia,49.34943,-124.36893,0,104075
110360,Garden Rd W at Beach,49.34233,-124.44785,0,110360
110361,Garden Rd W at Primrose,49.34229,-124.44335,0,110361
110362,Memorial 750 block,49.34502,-124.44157,0,110362
104048,Leon at Horne Lake,49.38725,-124.61094,0,104048
104161,Isl Hwy NS Fisheries Rd,49.39643,-124.6102,0,104161
104163,Island Hwy ACR Lions Way,49.40437,-124.63118,0,104163
104164,Isl Hwy at Magnolia Court,49.43482,-124.67418,0,104164
104175,Sunrise at Island Hwy W,49.34918,-124.36863,0,104175
110339,Sunrise at Drew,49.34558,-124.37752,0,110339
110340,Sunrise at Nicolls,49.34497,-124.38248,0,110340
110341,Sunrise at Boultbee,49.34553,-124.38568,0,110341
110342,Sunrise at Sutton,49.3456,-124.38798,0,110342
110343,Sunrise at Chartwell,49.34625,-124.39361,0,110343
110344,Sunrise at Lancaster,49.34624,-124.39664,0,110344
110345,Bennett at Cardinal,49.34794,-124.39888,0,110345
104795,SB Island Hwy. at Mostar,49.21368,-124.02899,0,104795
104796,Schoolhouse at Fielding,49.10514,-123.8942,0,104796
104806,Bruce Ave at 8th St,49.1434,-123.94981,0,104806
104808,Fitzwilliam at Prideaux,49.16487,-123.94436,0,104808
104807,Bruce Ave at 8th St,49.14414,-123.94953,0,104807
104288,Hallberg at Carden,49.05413,-123.88395,0,104288
104771,Hallberg at Seabird,49.05052,-123.88397,0,104771
104772,Hallberg at Pelter,49.04715,-123.88398,0,104772
104196,Front St. at Museum Way,49.16584,-123.93448,0,104196
110410,Northwest Bay 2590 block,49.28305,-124.18876,0,110410
110411,Northwest Bay at Cross,49.27678,-124.19122,0,110411
104794,Island Hwy at Rutherford,49.21512,-124.02979,0,104794
104184,Fourth at Hillcrest,49.15887,-123.96017,0,104184
109926,Woodgrove Centre Ex Bay C,49.23695,-124.05336,0,109926
110518,Woodgrove Centre Ex Bay A,49.23674,-124.05299,0,110518
110517,Woodgrove Centre Ex Bay B,49.23685,-124.05317,0,110517
110070,VIU Exchange Bay C,49.15823,-123.96652,0,110070
104177,Downtown Nanaimo Ex Bay A,49.16409,-123.93175,0,104177
109971,Fitzwilliam at Prideaux,49.16464,-123.94476,0,109971
109852,Neyland at Departure Bay,49.20937,-123.98724,0,109852
109853,Neyland at Crestwood,49.20746,-123.98836,0,109853
109854,Bay at Newton,49.2062,-123.98373,0,109854
109855,Bay at Haliday,49.20615,-123.98008,0,109855
109856,Glenayr at Wingrove,49.205,-123.97619,0,109856
109857,Glenayr at Lynburn,49.20221,-123.97626,0,109857
109858,Glenayr at Argyle,49.19915,-123.9763,0,109858
109859,Glenayr at Marlborough,49.19616,-123.97627,0,109859
110212,Holyrood at Highland,49.19432,-123.97532,0,110212
110211,Highland at Montrose,49.192,-123.97118,0,110211
109861,Estevan at Brechin,49.18957,-123.96249,0,109861
109862,Estevan at Maple,49.1869,-123.95795,0,109862
109863,Estevan at Brierley,49.18508,-123.95502,0,109863
109864,Princess Royal at Hemlock,49.18308,-123.95296,0,109864
109865,Millstone at Cadogan,49.18136,-123.955,0,109865
109866,Millstone at Hunter,49.17918,-123.95507,0,109866
109867,Townsite at Millstone,49.17695,-123.95424,0,109867
109868,Townsite at Churchill,49.17693,-123.95228,0,109868
109869,Townsite at Terminal Ave,49.17704,-123.94795,0,109869
104991,Despard at Hackberry,49.31219,-124.32796,0,104991
110436,Chestnut at Mulberry,49.31582,-124.3329,0,110436
110430,Hirst Ave W at Cheney,49.31941,-124.31728,0,110430
110431,Hirst Ave W 330 block,49.31938,-124.32119,0,110431
110432,Moilliet at Hirst,49.31882,-124.32386,0,110432
110433,Moilliet at Jensen,49.3172,-124.32383,0,110433
110434,Moilliet St S at Harnish,49.31615,-124.3238,0,110434
110437,Finholm at Hirst,49.31952,-124.3285,0,110437
110438,Finholm St S at Morison,49.32083,-124.3285,0,110438
110439,Morison at Acacia St N,49.32129,-124.33182,0,110439
110435,Despard at Moilliet St S,49.31214,-124.32439,0,110435
110267,Wright at Reid,49.33916,-124.35503,0,110267
104036,Stanhope at Parkside,49.33351,-124.34518,0,104036
104038,Stanhope at Belson,49.33356,-124.34112,0,104038
104040,NB Pym at Sanderson,49.33475,-124.34037,0,104040
104042,Pym at Temple,49.33663,-124.34043,0,104042
110271,Temple at Chinook,49.33374,-124.33522,0,110271
110272,Temple at Soriel,49.33146,-124.33311,0,110272
110273,Doehle at Allwood,49.33021,-124.33271,0,110273
110274,Doehle at Tranfield,49.33019,-124.33574,0,110274
110275,Pym St N 440 block,49.3292,-124.33795,0,110275
110276,Pym St N at Brice,49.32584,-124.3379,0,110276
110277,Pym St N at Forsyth,49.32331,-124.33795,0,110277
110506,Pym St N at Morison,49.3213,-124.33796,0,110506
110278,Morison at Ballenas,49.32113,-124.33472,0,110278
110279,Morison at Acacia St N,49.32118,-124.33099,0,110279
110280,Finholm St S at Morison,49.32085,-124.32864,0,110280
110281,Finholm at Hirst,49.31947,-124.32866,0,110281
110282,Chestnut at Mulberry,49.31591,-124.33313,0,110282
104990,Despard at Springwood,49.31202,-124.32729,0,104990
110283,Despard at Moilliet St S,49.31201,-124.32424,0,110283
110284,Moilliet St S at Harnish,49.316,-124.32361,0,110284
110285,Moilliet at Jensen,49.31764,-124.32366,0,110285
110286,Moilliet at Jensen,49.31904,-124.32369,0,110286
110287,Hirst Ave W 330 block,49.31924,-124.32077,0,110287
110289,McMillan at Island Hwy W,49.32159,-124.31675,0,110289
110290,Island Hwy E at McCarter,49.32069,-124.31116,0,110290
110291,Island Hwy E at Corfield,49.32008,-124.30666,0,110291
110292,Island Hwy E at Bagshaw,49.31936,-124.30356,0,110292
110440,Morison at Ballenas,49.32125,-124.33485,0,110440
110441,Pym St N at Jenkins,49.32164,-124.33774,0,110441
110442,Pym St N at Blenkin,49.32447,-124.33775,0,110442
110443,Pym St N at Brice,49.32601,-124.33771,0,110443
110422,Pym St N 440 block,49.32932,-124.33777,0,110422
110423,Doehle at Tranfield,49.3301,-124.33636,0,110423
110424,Doehle at Allwood,49.33009,-124.33295,0,110424
110425,Temple at Soriel,49.3322,-124.33358,0,110425
110426,Temple at Sanderson,49.33442,-124.33564,0,110426
110427,Temple at Digby,49.33587,-124.33779,0,110427
104043,Pym at temple,49.33664,-124.34064,0,104043
104041,Pym at Sanderson,49.33471,-124.34056,0,104041
104039,Stanhope at Belson,49.33369,-124.3412,0,104039
104993,Wakesiah at Foster,49.1608,-123.96104,0,104993
104057,Wembley at Roberton Blvd,49.33468,-124.35419,0,104057
110519,VIU Exchange Bay B,49.15817,-123.96645,0,110519
110080,Bowen at Meredith,49.18772,-123.98639,0,110080
109990,Bowen at Latimer,49.18968,-123.98903,0,109990
109992,Bowen 2340 block,49.19621,-123.99547,0,109992
110491,Bowen at Labieux,49.19932,-123.99899,0,110491
110022,Bowen 2320 block,49.19574,-123.99547,0,110022
110023,Bowen at Northfield,49.19155,-123.99184,0,110023
110024,Bowen at Fern,49.18982,-123.98979,0,110024
110465,Bowen at Meredith,49.18791,-123.98712,0,110465
110466,Bowen at James,49.18495,-123.9839,0,110466
104185,Fourth St at Hillcrest,49.15915,-123.96064,0,104185
110520,VIU Exchange Bay D,49.15828,-123.96657,0,110520
104037,Stanhope at Parkside,49.33367,-124.34462,0,104037
110037,Pryde at White,49.17836,-123.97255,0,110037
110038,Bowen at Buttertubs,49.17632,-123.96632,0,110038
104076,Johnstone at Sumar Ln,49.34781,-124.37729,0,104076
110468,Bowen at East Wellington,49.18082,-123.97899,0,110468
110469,Bowen at Pryde,49.178,-123.97332,0,110469
109977,Bowen at Buttertubs,49.17732,-123.96806,0,109977
109978,Pryde at White,49.17817,-123.97235,0,109978
110076,Bowen at Caspers,49.17837,-123.97348,0,110076
104168,Wembley Cntr at Wembley,49.32917,-124.34374,0,104168
104058,Isl Hwy W at Wembley Mall,49.33121,-124.34451,0,104058
104033,Village Green Mall Duncan,48.77492,-123.70141,0,104033
106148,Canada Ave at Station,48.77779,-123.70687,0,106148
106131,Beverly St at Duncan NB,48.78478,-123.7084,0,106131
136034,Canada Ave at Station,48.77742,-123.70697,0,136034
108327,1st Ave and Trans Can Hwy,48.99791,-123.82408,0,108327
108329,Drinkwater at Cow Common,48.80301,-123.7196,0,108329
888333,Border RDN to CVRD SB,49.04348,-123.87169,0,888333
888334,Border CVRD to RDN NB,49.0439,-123.87091,0,888334
108229,Canada Ave at Beverly,48.78478,-123.7091,0,108229
110029,Hallen at Nelson,49.18735,-123.96869,0,110029
109985,Nelson at Kiwanis,49.18708,-123.96908,0,109985
104199,Vowels Rd. at Angus,49.0576,-123.87877,0,104199
104167,Alberni Hwy at Health Ctr,49.31056,-124.32431,0,104167
110226,Northwind at Eastwind Dr.,49.24773,-124.11857,0,110226
109765,Jingle Pot 1950 block,49.16794,-123.97886,0,109765
110119,9th St at Yee,49.14,-123.95344,0,110119
110136,9th St at Shelby Ann Ave,49.13992,-123.95225,0,110136
110472,Haliburton at Chase River,49.13623,-123.92134,0,110472
110473,Haliburton 1060 block,49.13913,-123.92145,0,110473
104172,Jingle Pot at 1972 Block,49.16834,-123.97956,0,104172
109895,Hammond Bay 3000 block,49.20922,-123.96462,0,109895
109955,Hammond Bay 3010 block,49.20973,-123.96482,0,109955
110089,Norwell at 106th St,49.20859,-124.01063,0,110089
110490,Bowen at Kenworth,49.20244,-124.00123,0,110490
888777,Wakesiah at Fourth,49.15947,-123.96086,0,888777
110467,Bowen at Dufferin,49.18346,-123.98243,0,110467
110486,Bruce at Albion,49.15721,-123.94945,0,110486
104188,Tenth St. 479 Block,49.13607,-123.94612,0,104188
110188,Cedar at Morland,49.10084,-123.8549,0,110188
104191,Tenth St. at Douglas Ave.,49.13613,-123.9386,0,104191
104189,Tenth St. 479 Block,49.13625,-123.9442,0,104189
104992,Comox Rd. at Cliff St.,49.17014,-123.93919,0,104992
109751,Jingle Pot at Bird Sanc,49.16664,-123.96861,0,109751
109752,Jingle Pot at Valley Oak,49.16727,-123.97629,0,109752
104162,River Rd FS Fisheries Rd,49.39687,-124.61287,0,104162
109872,Front at Gabriola Ferry,49.16528,-123.93175,0,109872
110480,Haliburton at Milton,49.15814,-123.93257,0,110480
104998,Metral at Dunbar,49.22629,-124.04327,0,104998
104997,Jingle Pot at Black Diamond,49.16664,-123.97445,0,104997
